[
    {
        "Capital": "Kabul",
        "Corruption": 0.924,
        "GDP": 7.695,
        "Generocity": -0.102,
        "Lat": 34.516666666666666,
        "LifeExp": 52.493,
        "Long": 69.183333,
        "Name": "Afghanistan",
        "Score": 2.523,
        "Support": 0.463
    },
    {
        "Capital": "Tirana",
        "Corruption": 0.901,
        "GDP": 9.52,
        "Generocity": -0.03,
        "Lat": 41.31666666666667,
        "LifeExp": 68.999,
        "Long": 19.816667,
        "Name": "Albania",
        "Score": 5.117,
        "Support": 0.697
    },
    {
        "Capital": "Algiers",
        "Corruption": 0.752,
        "GDP": 9.342,
        "Generocity": -0.067,
        "Lat": 36.75,
        "LifeExp": 66.005,
        "Long": 3.05,
        "Name": "Algeria",
        "Score": 4.887,
        "Support": 0.802
    },
    {
        "Capital": "Buenos Aires",
        "Corruption": 0.834,
        "GDP": 9.962,
        "Generocity": -0.182,
        "Lat": -34.583333333333336,
        "LifeExp": 69.0,
        "Long": -58.666667,
        "Name": "Argentina",
        "Score": 5.929,
        "Support": 0.898
    },
    {
        "Capital": "Yerevan",
        "Corruption": 0.629,
        "GDP": 9.487,
        "Generocity": -0.168,
        "Lat": 40.166666666666664,
        "LifeExp": 67.055,
        "Long": 44.5,
        "Name": "Armenia",
        "Score": 5.283,
        "Support": 0.799
    },
    {
        "Capital": "Canberra",
        "Corruption": 0.442,
        "GDP": 10.796,
        "Generocity": 0.159,
        "Lat": -35.266666666666666,
        "LifeExp": 73.9,
        "Long": 149.133333,
        "Name": "Australia",
        "Score": 7.183,
        "Support": 0.94
    },
    {
        "Capital": "Vienna",
        "Corruption": 0.481,
        "GDP": 10.906,
        "Generocity": 0.042,
        "Lat": 48.2,
        "LifeExp": 73.3,
        "Long": 16.366667,
        "Name": "Austria",
        "Score": 7.268,
        "Support": 0.934
    },
    {
        "Capital": "Baku",
        "Corruption": 0.506,
        "GDP": 9.569,
        "Generocity": -0.223,
        "Lat": 40.38333333333333,
        "LifeExp": 65.656,
        "Long": 49.866667,
        "Name": "Azerbaijan",
        "Score": 5.171,
        "Support": 0.836
    },
    {
        "Capital": "Manama",
        "Corruption": 0.722,
        "GDP": 10.669,
        "Generocity": 0.089,
        "Lat": 26.233333333333334,
        "LifeExp": 69.495,
        "Long": 50.566667,
        "Name": "Bahrain",
        "Score": 6.647,
        "Support": 0.862
    },
    {
        "Capital": "Dhaka",
        "Corruption": 0.682,
        "GDP": 8.454,
        "Generocity": -0.041,
        "Lat": 23.716666666666665,
        "LifeExp": 64.8,
        "Long": 90.4,
        "Name": "Bangladesh",
        "Score": 5.025,
        "Support": 0.693
    },
    {
        "Capital": "Minsk",
        "Corruption": 0.627,
        "GDP": 9.853,
        "Generocity": -0.18,
        "Lat": 53.9,
        "LifeExp": 66.253,
        "Long": 27.566667,
        "Name": "Belarus",
        "Score": 5.534,
        "Support": 0.91
    },
    {
        "Capital": "Brussels",
        "Corruption": 0.646,
        "GDP": 10.823,
        "Generocity": -0.153,
        "Lat": 50.833333333333336,
        "LifeExp": 72.199,
        "Long": 4.333333,
        "Name": "Belgium",
        "Score": 6.834,
        "Support": 0.906
    },
    {
        "Capital": "Porto-Novo",
        "Corruption": 0.661,
        "GDP": 8.087,
        "Generocity": -0.034,
        "Lat": 6.483333333333333,
        "LifeExp": 54.713,
        "Long": 2.616667,
        "Name": "Benin",
        "Score": 5.045,
        "Support": 0.489
    },
    {
        "Capital": "La Paz",
        "Corruption": 0.839,
        "GDP": 9.046,
        "Generocity": -0.077,
        "Lat": -16.5,
        "LifeExp": 63.901,
        "Long": -68.15,
        "Name": "Bolivia",
        "Score": 5.716,
        "Support": 0.81
    },
    {
        "Capital": "Sarajevo",
        "Corruption": 0.931,
        "GDP": 9.59,
        "Generocity": 0.113,
        "Lat": 43.86666666666667,
        "LifeExp": 68.098,
        "Long": 18.416667,
        "Name": "Bosnia and Herzegovina",
        "Score": 5.813,
        "Support": 0.87
    },
    {
        "Capital": "Gaborone",
        "Corruption": 0.801,
        "GDP": 9.782,
        "Generocity": -0.246,
        "Lat": -24.633333333333333,
        "LifeExp": 59.269,
        "Long": 25.9,
        "Name": "Botswana",
        "Score": 3.467,
        "Support": 0.784
    },
    {
        "Capital": "Brasilia",
        "Corruption": 0.756,
        "GDP": 9.577,
        "Generocity": -0.071,
        "Lat": -15.783333333333331,
        "LifeExp": 66.601,
        "Long": -47.916667,
        "Name": "Brazil",
        "Score": 6.33,
        "Support": 0.882
    },
    {
        "Capital": "Sofia",
        "Corruption": 0.932,
        "GDP": 10.016,
        "Generocity": -0.096,
        "Lat": 42.68333333333333,
        "LifeExp": 67.0,
        "Long": 23.316667,
        "Name": "Bulgaria",
        "Score": 5.266,
        "Support": 0.931
    },
    {
        "Capital": "Ouagadougou",
        "Corruption": 0.748,
        "GDP": 7.678,
        "Generocity": -0.009,
        "Lat": 12.366666666666667,
        "LifeExp": 54.151,
        "Long": -1.516667,
        "Name": "Burkina Faso",
        "Score": 4.834,
        "Support": 0.672
    },
    {
        "Capital": "Rangoon",
        "Corruption": 0.66,
        "GDP": 8.541,
        "Generocity": 0.509,
        "Lat": 16.8,
        "LifeExp": 59.302,
        "Long": 96.15,
        "Name": "Myanmar",
        "Score": 4.426,
        "Support": 0.779
    },
    {
        "Capital": "Bujumbura",
        "Corruption": 0.607,
        "GDP": 6.635,
        "Generocity": -0.024,
        "Lat": -3.3666666666666667,
        "LifeExp": 53.4,
        "Long": 29.35,
        "Name": "Burundi",
        "Score": 3.775,
        "Support": 0.49
    },
    {
        "Capital": "Phnom Penh",
        "Corruption": 0.843,
        "GDP": 8.36,
        "Generocity": 0.034,
        "Lat": 11.55,
        "LifeExp": 62.0,
        "Long": 104.916667,
        "Name": "Cambodia",
        "Score": 4.83,
        "Support": 0.765
    },
    {
        "Capital": "Yaounde",
        "Corruption": 0.848,
        "GDP": 8.189,
        "Generocity": 0.026,
        "Lat": 3.8666666666666663,
        "LifeExp": 53.515,
        "Long": 11.516667,
        "Name": "Cameroon",
        "Score": 5.142,
        "Support": 0.71
    },
    {
        "Capital": "Ottawa",
        "Corruption": 0.415,
        "GDP": 10.776,
        "Generocity": 0.089,
        "Lat": 45.416666666666664,
        "LifeExp": 73.8,
        "Long": -75.7,
        "Name": "Canada",
        "Score": 7.103,
        "Support": 0.926
    },
    {
        "Capital": "N'Djamena",
        "Corruption": 0.807,
        "GDP": 7.364,
        "Generocity": 0.041,
        "Lat": 12.1,
        "LifeExp": 48.478,
        "Long": 15.033333,
        "Name": "Chad",
        "Score": 4.355,
        "Support": 0.619
    },
    {
        "Capital": "Santiago",
        "Corruption": 0.83,
        "GDP": 10.071,
        "Generocity": -0.044,
        "Lat": -33.45,
        "LifeExp": 70.0,
        "Long": -70.666667,
        "Name": "Chile",
        "Score": 6.172,
        "Support": 0.882
    },
    {
        "Capital": "Beijing",
        "Corruption": 0.755,
        "GDP": 9.673,
        "Generocity": -0.146,
        "Lat": 39.916666666666664,
        "LifeExp": 69.593,
        "Long": 116.383333,
        "Name": "China",
        "Score": 5.339,
        "Support": 0.811
    },
    {
        "Capital": "Bogota",
        "Corruption": 0.841,
        "GDP": 9.557,
        "Generocity": -0.135,
        "Lat": 4.6,
        "LifeExp": 68.001,
        "Long": -74.083333,
        "Name": "Colombia",
        "Score": 6.012,
        "Support": 0.847
    },
    {
        "Capital": "Moroni",
        "Corruption": 0.781,
        "GDP": 8.031,
        "Generocity": 0.082,
        "Lat": -11.7,
        "LifeExp": 57.349,
        "Long": 43.233333,
        "Name": "Comoros",
        "Score": 4.289,
        "Support": 0.626
    },
    {
        "Capital": "San Jose",
        "Corruption": 0.809,
        "GDP": 9.88,
        "Generocity": -0.126,
        "Lat": 9.933333333333334,
        "LifeExp": 71.4,
        "Long": -84.083333,
        "Name": "Costa Rica",
        "Score": 7.069,
        "Support": 0.891
    },
    {
        "Capital": "Zagreb",
        "Corruption": 0.939,
        "GDP": 10.217,
        "Generocity": -0.118,
        "Lat": 45.8,
        "LifeExp": 70.799,
        "Long": 16.0,
        "Name": "Croatia",
        "Score": 5.882,
        "Support": 0.924
    },
    {
        "Capital": "Nicosia",
        "Corruption": 0.844,
        "GDP": 10.576,
        "Generocity": -0.015,
        "Lat": 35.166666666666664,
        "LifeExp": 73.898,
        "Long": 33.366667,
        "Name": "Cyprus",
        "Score": 6.223,
        "Support": 0.802
    },
    {
        "Capital": "Prague",
        "Corruption": 0.868,
        "GDP": 10.556,
        "Generocity": -0.208,
        "Lat": 50.083333333333336,
        "LifeExp": 70.807,
        "Long": 14.466667,
        "Name": "Czech Republic",
        "Score": 6.965,
        "Support": 0.947
    },
    {
        "Capital": "Copenhagen",
        "Corruption": 0.179,
        "GDP": 10.933,
        "Generocity": 0.03,
        "Lat": 55.666666666666664,
        "LifeExp": 72.7,
        "Long": 12.583333,
        "Name": "Denmark",
        "Score": 7.62,
        "Support": 0.954
    },
    {
        "Capital": "Santo Domingo",
        "Corruption": 0.714,
        "GDP": 9.802,
        "Generocity": -0.133,
        "Lat": 18.466666666666665,
        "LifeExp": 66.102,
        "Long": -69.9,
        "Name": "Dominican Republic",
        "Score": 5.545,
        "Support": 0.853
    },
    {
        "Capital": "Quito",
        "Corruption": 0.843,
        "GDP": 9.313,
        "Generocity": -0.124,
        "Lat": -0.21666666666666667,
        "LifeExp": 68.8,
        "Long": -78.5,
        "Name": "Ecuador",
        "Score": 5.764,
        "Support": 0.821
    },
    {
        "Capital": "Cairo",
        "Corruption": 0.795,
        "GDP": 9.367,
        "Generocity": -0.182,
        "Lat": 30.05,
        "LifeExp": 61.998,
        "Long": 31.25,
        "Name": "Egypt",
        "Score": 4.283,
        "Support": 0.75
    },
    {
        "Capital": "San Salvador",
        "Corruption": 0.688,
        "GDP": 9.054,
        "Generocity": -0.11,
        "Lat": 13.7,
        "LifeExp": 66.402,
        "Long": -89.2,
        "Name": "El Salvador",
        "Score": 6.061,
        "Support": 0.762
    },
    {
        "Capital": "Tallinn",
        "Corruption": 0.527,
        "GDP": 10.481,
        "Generocity": -0.106,
        "Lat": 59.43333333333333,
        "LifeExp": 68.8,
        "Long": 24.716667,
        "Name": "Estonia",
        "Score": 6.189,
        "Support": 0.941
    },
    {
        "Capital": "Addis Ababa",
        "Corruption": 0.761,
        "GDP": 7.694,
        "Generocity": 0.082,
        "Lat": 9.033333333333331,
        "LifeExp": 59.0,
        "Long": 38.7,
        "Name": "Ethiopia",
        "Score": 4.275,
        "Support": 0.764
    },
    {
        "Capital": "Helsinki",
        "Corruption": 0.186,
        "GDP": 10.775,
        "Generocity": -0.098,
        "Lat": 60.166666666666664,
        "LifeExp": 72.0,
        "Long": 24.933333,
        "Name": "Finland",
        "Score": 7.842,
        "Support": 0.954
    },
    {
        "Capital": "Paris",
        "Corruption": 0.571,
        "GDP": 10.704,
        "Generocity": -0.147,
        "Lat": 48.86666666666667,
        "LifeExp": 74.0,
        "Long": 2.333333,
        "Name": "France",
        "Score": 6.69,
        "Support": 0.942
    },
    {
        "Capital": "Libreville",
        "Corruption": 0.84,
        "GDP": 9.603,
        "Generocity": -0.2,
        "Lat": 0.38333333333333336,
        "LifeExp": 59.962,
        "Long": 9.45,
        "Name": "Gabon",
        "Score": 4.852,
        "Support": 0.776
    },
    {
        "Capital": "Tbilisi",
        "Corruption": 0.655,
        "GDP": 9.585,
        "Generocity": -0.238,
        "Lat": 41.68333333333333,
        "LifeExp": 64.3,
        "Long": 44.833333,
        "Name": "Georgia",
        "Score": 4.891,
        "Support": 0.671
    },
    {
        "Capital": "Berlin",
        "Corruption": 0.46,
        "GDP": 10.873,
        "Generocity": 0.011,
        "Lat": 52.516666666666666,
        "LifeExp": 72.5,
        "Long": 13.4,
        "Name": "Germany",
        "Score": 7.155,
        "Support": 0.903
    },
    {
        "Capital": "Accra",
        "Corruption": 0.848,
        "GDP": 8.58,
        "Generocity": 0.123,
        "Lat": 5.55,
        "LifeExp": 57.586,
        "Long": -0.216667,
        "Name": "Ghana",
        "Score": 5.088,
        "Support": 0.727
    },
    {
        "Capital": "Athens",
        "Corruption": 0.823,
        "GDP": 10.279,
        "Generocity": -0.288,
        "Lat": 37.983333333333334,
        "LifeExp": 72.6,
        "Long": 23.733333,
        "Name": "Greece",
        "Score": 5.723,
        "Support": 0.823
    },
    {
        "Capital": "Guatemala City",
        "Corruption": 0.775,
        "GDP": 9.053,
        "Generocity": -0.038,
        "Lat": 14.616666666666667,
        "LifeExp": 64.958,
        "Long": -90.516667,
        "Name": "Guatemala",
        "Score": 6.435,
        "Support": 0.813
    },
    {
        "Capital": "Conakry",
        "Corruption": 0.766,
        "GDP": 7.838,
        "Generocity": 0.095,
        "Lat": 9.5,
        "LifeExp": 55.008,
        "Long": -13.7,
        "Name": "Guinea",
        "Score": 4.984,
        "Support": 0.639
    },
    {
        "Capital": "Port-au-Prince",
        "Corruption": 0.721,
        "GDP": 7.477,
        "Generocity": 0.422,
        "Lat": 18.533333333333335,
        "LifeExp": 55.7,
        "Long": -72.333333,
        "Name": "Haiti",
        "Score": 3.615,
        "Support": 0.54
    },
    {
        "Capital": "Tegucigalpa",
        "Corruption": 0.809,
        "GDP": 8.648,
        "Generocity": 0.081,
        "Lat": 14.1,
        "LifeExp": 67.3,
        "Long": -87.216667,
        "Name": "Honduras",
        "Score": 5.919,
        "Support": 0.812
    },
    {
        "Capital": "Budapest",
        "Corruption": 0.876,
        "GDP": 10.358,
        "Generocity": -0.186,
        "Lat": 47.5,
        "LifeExp": 68.0,
        "Long": 19.083333,
        "Name": "Hungary",
        "Score": 5.992,
        "Support": 0.943
    },
    {
        "Capital": "Reykjavik",
        "Corruption": 0.673,
        "GDP": 10.878,
        "Generocity": 0.16,
        "Lat": 64.15,
        "LifeExp": 73.0,
        "Long": -21.95,
        "Name": "Iceland",
        "Score": 7.554,
        "Support": 0.983
    },
    {
        "Capital": "New Delhi",
        "Corruption": 0.774,
        "GDP": 8.755,
        "Generocity": 0.089,
        "Lat": 28.6,
        "LifeExp": 60.633,
        "Long": 77.2,
        "Name": "India",
        "Score": 3.819,
        "Support": 0.603
    },
    {
        "Capital": "Jakarta",
        "Corruption": 0.867,
        "GDP": 9.365,
        "Generocity": 0.542,
        "Lat": -6.166666666666667,
        "LifeExp": 62.236,
        "Long": 106.816667,
        "Name": "Indonesia",
        "Score": 5.345,
        "Support": 0.811
    },
    {
        "Capital": "Tehran",
        "Corruption": 0.714,
        "GDP": 9.584,
        "Generocity": 0.218,
        "Lat": 35.7,
        "LifeExp": 66.3,
        "Long": 51.416667,
        "Name": "Iran",
        "Score": 4.721,
        "Support": 0.71
    },
    {
        "Capital": "Baghdad",
        "Corruption": 0.875,
        "GDP": 9.24,
        "Generocity": -0.053,
        "Lat": 33.333333333333336,
        "LifeExp": 60.583,
        "Long": 44.4,
        "Name": "Iraq",
        "Score": 4.854,
        "Support": 0.746
    },
    {
        "Capital": "Dublin",
        "Corruption": 0.363,
        "GDP": 11.342,
        "Generocity": 0.077,
        "Lat": 53.31666666666667,
        "LifeExp": 72.4,
        "Long": -6.233333,
        "Name": "Ireland",
        "Score": 7.085,
        "Support": 0.947
    },
    {
        "Capital": "Jerusalem",
        "Corruption": 0.753,
        "GDP": 10.575,
        "Generocity": 0.031,
        "Lat": 31.766666666666666,
        "LifeExp": 73.503,
        "Long": 35.233333,
        "Name": "Israel",
        "Score": 7.157,
        "Support": 0.939
    },
    {
        "Capital": "Rome",
        "Corruption": 0.866,
        "GDP": 10.623,
        "Generocity": -0.084,
        "Lat": 41.9,
        "LifeExp": 73.8,
        "Long": 12.483333,
        "Name": "Italy",
        "Score": 6.483,
        "Support": 0.88
    },
    {
        "Capital": "Kingston",
        "Corruption": 0.884,
        "GDP": 9.186,
        "Generocity": -0.137,
        "Lat": 18.0,
        "LifeExp": 67.5,
        "Long": -76.8,
        "Name": "Jamaica",
        "Score": 6.309,
        "Support": 0.877
    },
    {
        "Capital": "Tokyo",
        "Corruption": 0.638,
        "GDP": 10.611,
        "Generocity": -0.258,
        "Lat": 35.68333333333333,
        "LifeExp": 75.1,
        "Long": 139.75,
        "Name": "Japan",
        "Score": 5.94,
        "Support": 0.884
    },
    {
        "Capital": "Amman",
        "Corruption": 0.705,
        "GDP": 9.182,
        "Generocity": -0.167,
        "Lat": 31.95,
        "LifeExp": 67.0,
        "Long": 35.933333,
        "Name": "Jordan",
        "Score": 4.395,
        "Support": 0.767
    },
    {
        "Capital": "Astana",
        "Corruption": 0.733,
        "GDP": 10.155,
        "Generocity": -0.069,
        "Lat": 51.166666666666664,
        "LifeExp": 65.2,
        "Long": 71.416667,
        "Name": "Kazakhstan",
        "Score": 6.152,
        "Support": 0.952
    },
    {
        "Capital": "Nairobi",
        "Corruption": 0.825,
        "GDP": 8.361,
        "Generocity": 0.287,
        "Lat": -1.2833333333333332,
        "LifeExp": 60.704,
        "Long": 36.816667,
        "Name": "Kenya",
        "Score": 4.607,
        "Support": 0.688
    },
    {
        "Capital": "Seoul",
        "Corruption": 0.727,
        "GDP": 10.651,
        "Generocity": -0.083,
        "Lat": 37.55,
        "LifeExp": 73.9,
        "Long": 126.983333,
        "Name": "South Korea",
        "Score": 5.845,
        "Support": 0.799
    },
    {
        "Capital": "Pristina",
        "Corruption": 0.917,
        "GDP": 9.318,
        "Generocity": 0.257,
        "Lat": 42.666666666666664,
        "LifeExp": 63.813,
        "Long": 21.166667,
        "Name": "Kosovo",
        "Score": 6.372,
        "Support": 0.821
    },
    {
        "Capital": "Kuwait City",
        "Corruption": 0.736,
        "GDP": 10.817,
        "Generocity": -0.104,
        "Lat": 29.366666666666667,
        "LifeExp": 66.9,
        "Long": 47.966667,
        "Name": "Kuwait",
        "Score": 6.106,
        "Support": 0.843
    },
    {
        "Capital": "Bishkek",
        "Corruption": 0.908,
        "GDP": 8.538,
        "Generocity": 0.119,
        "Lat": 42.86666666666667,
        "LifeExp": 64.401,
        "Long": 74.6,
        "Name": "Kyrgyzstan",
        "Score": 5.744,
        "Support": 0.893
    },
    {
        "Capital": "Vientiane",
        "Corruption": 0.658,
        "GDP": 8.947,
        "Generocity": 0.123,
        "Lat": 17.966666666666665,
        "LifeExp": 58.968,
        "Long": 102.6,
        "Name": "Laos",
        "Score": 5.03,
        "Support": 0.728
    },
    {
        "Capital": "Riga",
        "Corruption": 0.8,
        "GDP": 10.315,
        "Generocity": -0.162,
        "Lat": 56.95,
        "LifeExp": 67.1,
        "Long": 24.1,
        "Name": "Latvia",
        "Score": 6.032,
        "Support": 0.927
    },
    {
        "Capital": "Beirut",
        "Corruption": 0.898,
        "GDP": 9.626,
        "Generocity": -0.073,
        "Lat": 33.86666666666667,
        "LifeExp": 67.355,
        "Long": 35.5,
        "Name": "Lebanon",
        "Score": 4.584,
        "Support": 0.848
    },
    {
        "Capital": "Maseru",
        "Corruption": 0.915,
        "GDP": 7.926,
        "Generocity": -0.131,
        "Lat": -29.316666666666663,
        "LifeExp": 48.7,
        "Long": 27.483333,
        "Name": "Lesotho",
        "Score": 3.512,
        "Support": 0.787
    },
    {
        "Capital": "Monrovia",
        "Corruption": 0.85,
        "GDP": 7.288,
        "Generocity": 0.05,
        "Lat": 6.3,
        "LifeExp": 56.498,
        "Long": -10.8,
        "Name": "Liberia",
        "Score": 4.625,
        "Support": 0.72
    },
    {
        "Capital": "Tripoli",
        "Corruption": 0.667,
        "GDP": 9.622,
        "Generocity": -0.087,
        "Lat": 32.88333333333333,
        "LifeExp": 62.3,
        "Long": 13.166667,
        "Name": "Libya",
        "Score": 5.41,
        "Support": 0.827
    },
    {
        "Capital": "Vilnius",
        "Corruption": 0.826,
        "GDP": 10.499,
        "Generocity": -0.203,
        "Lat": 54.68333333333333,
        "LifeExp": 67.906,
        "Long": 25.316667,
        "Name": "Lithuania",
        "Score": 6.255,
        "Support": 0.935
    },
    {
        "Capital": "Luxembourg",
        "Corruption": 0.386,
        "GDP": 11.647,
        "Generocity": -0.034,
        "Lat": 49.6,
        "LifeExp": 72.6,
        "Long": 6.116667,
        "Name": "Luxembourg",
        "Score": 7.324,
        "Support": 0.908
    },
    {
        "Capital": "Antananarivo",
        "Corruption": 0.803,
        "GDP": 7.396,
        "Generocity": -0.005,
        "Lat": -18.916666666666668,
        "LifeExp": 59.305,
        "Long": 47.516667,
        "Name": "Madagascar",
        "Score": 4.208,
        "Support": 0.686
    },
    {
        "Capital": "Lilongwe",
        "Corruption": 0.729,
        "GDP": 6.958,
        "Generocity": 0.038,
        "Lat": -13.966666666666669,
        "LifeExp": 57.948,
        "Long": 33.783333,
        "Name": "Malawi",
        "Score": 3.6,
        "Support": 0.537
    },
    {
        "Capital": "Kuala Lumpur",
        "Corruption": 0.839,
        "GDP": 10.238,
        "Generocity": 0.125,
        "Lat": 3.1666666666666665,
        "LifeExp": 67.102,
        "Long": 101.7,
        "Name": "Malaysia",
        "Score": 5.384,
        "Support": 0.817
    },
    {
        "Capital": "Male",
        "Corruption": 0.825,
        "GDP": 9.826,
        "Generocity": 0.024,
        "Lat": 4.166666666666667,
        "LifeExp": 70.6,
        "Long": 73.5,
        "Name": "Maldives",
        "Score": 5.198,
        "Support": 0.913
    },
    {
        "Capital": "Bamako",
        "Corruption": 0.827,
        "GDP": 7.744,
        "Generocity": -0.036,
        "Lat": 12.65,
        "LifeExp": 51.969,
        "Long": -8.0,
        "Name": "Mali",
        "Score": 4.723,
        "Support": 0.724
    },
    {
        "Capital": "Valletta",
        "Corruption": 0.653,
        "GDP": 10.674,
        "Generocity": 0.133,
        "Lat": 35.88333333333333,
        "LifeExp": 72.2,
        "Long": 14.5,
        "Name": "Malta",
        "Score": 6.602,
        "Support": 0.931
    },
    {
        "Capital": "Nouakchott",
        "Corruption": 0.731,
        "GDP": 8.542,
        "Generocity": -0.106,
        "Lat": 18.066666666666663,
        "LifeExp": 57.161,
        "Long": -15.966667,
        "Name": "Mauritania",
        "Score": 4.227,
        "Support": 0.795
    },
    {
        "Capital": "Port Louis",
        "Corruption": 0.789,
        "GDP": 10.008,
        "Generocity": -0.054,
        "Lat": -20.15,
        "LifeExp": 66.701,
        "Long": 57.483333,
        "Name": "Mauritius",
        "Score": 6.049,
        "Support": 0.905
    },
    {
        "Capital": "Mexico City",
        "Corruption": 0.799,
        "GDP": 9.859,
        "Generocity": -0.147,
        "Lat": 19.433333333333337,
        "LifeExp": 68.597,
        "Long": -99.133333,
        "Name": "Mexico",
        "Score": 6.317,
        "Support": 0.831
    },
    {
        "Capital": "Chisinau",
        "Corruption": 0.918,
        "GDP": 9.454,
        "Generocity": -0.079,
        "Lat": 47.0,
        "LifeExp": 65.699,
        "Long": 28.85,
        "Name": "Moldova",
        "Score": 5.766,
        "Support": 0.857
    },
    {
        "Capital": "Ulaanbaatar",
        "Corruption": 0.856,
        "GDP": 9.4,
        "Generocity": 0.116,
        "Lat": 47.916666666666664,
        "LifeExp": 62.5,
        "Long": 106.916667,
        "Name": "Mongolia",
        "Score": 5.677,
        "Support": 0.935
    },
    {
        "Capital": "Podgorica",
        "Corruption": 0.812,
        "GDP": 9.94,
        "Generocity": -0.034,
        "Lat": 42.43333333333333,
        "LifeExp": 68.699,
        "Long": 19.266667,
        "Name": "Montenegro",
        "Score": 5.581,
        "Support": 0.858
    },
    {
        "Capital": "Rabat",
        "Corruption": 0.801,
        "GDP": 8.903,
        "Generocity": -0.236,
        "Lat": 34.016666666666666,
        "LifeExp": 66.208,
        "Long": -6.816667,
        "Name": "Morocco",
        "Score": 4.918,
        "Support": 0.56
    },
    {
        "Capital": "Maputo",
        "Corruption": 0.684,
        "GDP": 7.158,
        "Generocity": 0.061,
        "Lat": -25.95,
        "LifeExp": 54.706,
        "Long": 32.583333,
        "Name": "Mozambique",
        "Score": 4.794,
        "Support": 0.744
    },
    {
        "Capital": "Windhoek",
        "Corruption": 0.847,
        "GDP": 9.161,
        "Generocity": -0.149,
        "Lat": -22.566666666666663,
        "LifeExp": 56.799,
        "Long": 17.083333,
        "Name": "Namibia",
        "Score": 4.574,
        "Support": 0.818
    },
    {
        "Capital": "Kathmandu",
        "Corruption": 0.727,
        "GDP": 8.12,
        "Generocity": 0.152,
        "Lat": 27.716666666666665,
        "LifeExp": 64.233,
        "Long": 85.316667,
        "Name": "Nepal",
        "Score": 5.269,
        "Support": 0.774
    },
    {
        "Capital": "Amsterdam",
        "Corruption": 0.338,
        "GDP": 10.932,
        "Generocity": 0.175,
        "Lat": 52.35,
        "LifeExp": 72.4,
        "Long": 4.916667,
        "Name": "Netherlands",
        "Score": 7.464,
        "Support": 0.942
    },
    {
        "Capital": "Wellington",
        "Corruption": 0.242,
        "GDP": 10.643,
        "Generocity": 0.134,
        "Lat": -41.3,
        "LifeExp": 73.4,
        "Long": 174.783333,
        "Name": "New Zealand",
        "Score": 7.277,
        "Support": 0.948
    },
    {
        "Capital": "Managua",
        "Corruption": 0.664,
        "GDP": 8.62,
        "Generocity": 0.02,
        "Lat": 12.133333333333333,
        "LifeExp": 67.657,
        "Long": -86.25,
        "Name": "Nicaragua",
        "Score": 5.972,
        "Support": 0.864
    },
    {
        "Capital": "Niamey",
        "Corruption": 0.693,
        "GDP": 7.098,
        "Generocity": 0.018,
        "Lat": 13.516666666666667,
        "LifeExp": 53.78,
        "Long": 2.116667,
        "Name": "Niger",
        "Score": 5.074,
        "Support": 0.641
    },
    {
        "Capital": "Abuja",
        "Corruption": 0.878,
        "GDP": 8.533,
        "Generocity": 0.037,
        "Lat": 9.083333333333334,
        "LifeExp": 50.102,
        "Long": 7.533333,
        "Name": "Nigeria",
        "Score": 4.759,
        "Support": 0.74
    },
    {
        "Capital": "Oslo",
        "Corruption": 0.27,
        "GDP": 11.053,
        "Generocity": 0.093,
        "Lat": 59.916666666666664,
        "LifeExp": 73.3,
        "Long": 10.75,
        "Name": "Norway",
        "Score": 7.392,
        "Support": 0.954
    },
    {
        "Capital": "Islamabad",
        "Corruption": 0.787,
        "GDP": 8.458,
        "Generocity": 0.098,
        "Lat": 33.68333333333333,
        "LifeExp": 58.709,
        "Long": 73.05,
        "Name": "Pakistan",
        "Score": 4.934,
        "Support": 0.651
    },
    {
        "Capital": "Panama City",
        "Corruption": 0.856,
        "GDP": 10.35,
        "Generocity": -0.166,
        "Lat": 8.966666666666667,
        "LifeExp": 69.652,
        "Long": -79.533333,
        "Name": "Panama",
        "Score": 6.18,
        "Support": 0.896
    },
    {
        "Capital": "Asuncion",
        "Corruption": 0.882,
        "GDP": 9.448,
        "Generocity": 0.028,
        "Lat": -25.266666666666666,
        "LifeExp": 65.9,
        "Long": -57.666667,
        "Name": "Paraguay",
        "Score": 5.653,
        "Support": 0.893
    },
    {
        "Capital": "Lima",
        "Corruption": 0.891,
        "GDP": 9.458,
        "Generocity": -0.154,
        "Lat": -12.05,
        "LifeExp": 68.25,
        "Long": -77.05,
        "Name": "Peru",
        "Score": 5.84,
        "Support": 0.832
    },
    {
        "Capital": "Manila",
        "Corruption": 0.742,
        "GDP": 9.076,
        "Generocity": -0.097,
        "Lat": 14.6,
        "LifeExp": 62.0,
        "Long": 120.966667,
        "Name": "Philippines",
        "Score": 5.88,
        "Support": 0.83
    },
    {
        "Capital": "Warsaw",
        "Corruption": 0.735,
        "GDP": 10.382,
        "Generocity": -0.165,
        "Lat": 52.25,
        "LifeExp": 69.702,
        "Long": 21.0,
        "Name": "Poland",
        "Score": 6.166,
        "Support": 0.898
    },
    {
        "Capital": "Lisbon",
        "Corruption": 0.887,
        "GDP": 10.421,
        "Generocity": -0.244,
        "Lat": 38.71666666666667,
        "LifeExp": 72.6,
        "Long": -9.133333,
        "Name": "Portugal",
        "Score": 5.929,
        "Support": 0.879
    },
    {
        "Capital": "Bucharest",
        "Corruption": 0.938,
        "GDP": 10.284,
        "Generocity": -0.219,
        "Lat": 44.43333333333333,
        "LifeExp": 67.355,
        "Long": 26.1,
        "Name": "Romania",
        "Score": 6.14,
        "Support": 0.832
    },
    {
        "Capital": "Moscow",
        "Corruption": 0.845,
        "GDP": 10.189,
        "Generocity": -0.111,
        "Lat": 55.75,
        "LifeExp": 64.703,
        "Long": 37.6,
        "Name": "Russia",
        "Score": 5.477,
        "Support": 0.903
    },
    {
        "Capital": "Kigali",
        "Corruption": 0.167,
        "GDP": 7.676,
        "Generocity": 0.061,
        "Lat": -1.95,
        "LifeExp": 61.4,
        "Long": 30.05,
        "Name": "Rwanda",
        "Score": 3.415,
        "Support": 0.552
    },
    {
        "Capital": "Riyadh",
        "Corruption": 0.684,
        "GDP": 10.743,
        "Generocity": -0.149,
        "Lat": 24.65,
        "LifeExp": 66.603,
        "Long": 46.7,
        "Name": "Saudi Arabia",
        "Score": 6.494,
        "Support": 0.891
    },
    {
        "Capital": "Dakar",
        "Corruption": 0.801,
        "GDP": 8.118,
        "Generocity": -0.046,
        "Lat": 14.733333333333333,
        "LifeExp": 59.802,
        "Long": -17.633333,
        "Name": "Senegal",
        "Score": 5.132,
        "Support": 0.71
    },
    {
        "Capital": "Belgrade",
        "Corruption": 0.835,
        "GDP": 9.787,
        "Generocity": 0.002,
        "Lat": 44.833333333333336,
        "LifeExp": 68.6,
        "Long": 20.5,
        "Name": "Serbia",
        "Score": 6.078,
        "Support": 0.873
    },
    {
        "Capital": "Freetown",
        "Corruption": 0.866,
        "GDP": 7.434,
        "Generocity": 0.084,
        "Lat": 8.483333333333333,
        "LifeExp": 51.651,
        "Long": -13.233333,
        "Name": "Sierra Leone",
        "Score": 3.849,
        "Support": 0.63
    },
    {
        "Capital": "Singapore",
        "Corruption": 0.082,
        "GDP": 11.488,
        "Generocity": -0.018,
        "Lat": 1.2833333333333332,
        "LifeExp": 76.953,
        "Long": 103.85,
        "Name": "Singapore",
        "Score": 6.377,
        "Support": 0.915
    },
    {
        "Capital": "Bratislava",
        "Corruption": 0.911,
        "GDP": 10.369,
        "Generocity": -0.124,
        "Lat": 48.15,
        "LifeExp": 69.201,
        "Long": 17.116667,
        "Name": "Slovakia",
        "Score": 6.331,
        "Support": 0.936
    },
    {
        "Capital": "Ljubljana",
        "Corruption": 0.806,
        "GDP": 10.529,
        "Generocity": -0.101,
        "Lat": 46.05,
        "LifeExp": 71.4,
        "Long": 14.516667,
        "Name": "Slovenia",
        "Score": 6.461,
        "Support": 0.948
    },
    {
        "Capital": "Pretoria",
        "Corruption": 0.86,
        "GDP": 9.403,
        "Generocity": -0.067,
        "Lat": -25.7,
        "LifeExp": 56.904,
        "Long": 28.216667,
        "Name": "South Africa",
        "Score": 4.956,
        "Support": 0.86
    },
    {
        "Capital": "Madrid",
        "Corruption": 0.745,
        "GDP": 10.571,
        "Generocity": -0.081,
        "Lat": 40.4,
        "LifeExp": 74.7,
        "Long": -3.683333,
        "Name": "Spain",
        "Score": 6.491,
        "Support": 0.932
    },
    {
        "Capital": "Colombo",
        "Corruption": 0.863,
        "GDP": 9.47,
        "Generocity": 0.079,
        "Lat": 6.916666666666667,
        "LifeExp": 67.299,
        "Long": 79.833333,
        "Name": "Sri Lanka",
        "Score": 4.325,
        "Support": 0.827
    },
    {
        "Capital": "Mbabane",
        "Corruption": 0.708,
        "GDP": 9.065,
        "Generocity": -0.185,
        "Lat": -26.316666666666663,
        "LifeExp": 50.833,
        "Long": 31.133333,
        "Name": "Swaziland",
        "Score": 4.308,
        "Support": 0.77
    },
    {
        "Capital": "Stockholm",
        "Corruption": 0.237,
        "GDP": 10.867,
        "Generocity": 0.086,
        "Lat": 59.333333333333336,
        "LifeExp": 72.7,
        "Long": 18.05,
        "Name": "Sweden",
        "Score": 7.363,
        "Support": 0.934
    },
    {
        "Capital": "Bern",
        "Corruption": 0.292,
        "GDP": 11.117,
        "Generocity": 0.025,
        "Lat": 46.916666666666664,
        "LifeExp": 74.4,
        "Long": 7.466667,
        "Name": "Switzerland",
        "Score": 7.571,
        "Support": 0.942
    },
    {
        "Capital": "Dushanbe",
        "Corruption": 0.553,
        "GDP": 8.091,
        "Generocity": -0.056,
        "Lat": 38.55,
        "LifeExp": 64.281,
        "Long": 68.766667,
        "Name": "Tajikistan",
        "Score": 5.466,
        "Support": 0.86
    },
    {
        "Capital": "Dar es Salaam",
        "Corruption": 0.577,
        "GDP": 7.876,
        "Generocity": 0.183,
        "Lat": -6.8,
        "LifeExp": 57.999,
        "Long": 39.283333,
        "Name": "Tanzania",
        "Score": 3.623,
        "Support": 0.702
    },
    {
        "Capital": "Bangkok",
        "Corruption": 0.895,
        "GDP": 9.805,
        "Generocity": 0.287,
        "Lat": 13.75,
        "LifeExp": 67.401,
        "Long": 100.516667,
        "Name": "Thailand",
        "Score": 5.985,
        "Support": 0.888
    },
    {
        "Capital": "Lome",
        "Corruption": 0.772,
        "GDP": 7.362,
        "Generocity": 0.032,
        "Lat": 6.116666666666666,
        "LifeExp": 54.914,
        "Long": 1.216667,
        "Name": "Togo",
        "Score": 4.107,
        "Support": 0.569
    },
    {
        "Capital": "Tunis",
        "Corruption": 0.87,
        "GDP": 9.266,
        "Generocity": -0.201,
        "Lat": 36.8,
        "LifeExp": 67.201,
        "Long": 10.183333,
        "Name": "Tunisia",
        "Score": 4.596,
        "Support": 0.691
    },
    {
        "Capital": "Ankara",
        "Corruption": 0.776,
        "GDP": 10.24,
        "Generocity": -0.139,
        "Lat": 39.93333333333333,
        "LifeExp": 67.199,
        "Long": 32.866667,
        "Name": "Turkey",
        "Score": 4.948,
        "Support": 0.822
    },
    {
        "Capital": "Ashgabat",
        "Corruption": 0.888,
        "GDP": 9.629,
        "Generocity": 0.273,
        "Lat": 37.95,
        "LifeExp": 62.409,
        "Long": 58.383333,
        "Name": "Turkmenistan",
        "Score": 5.066,
        "Support": 0.983
    },
    {
        "Capital": "Kampala",
        "Corruption": 0.855,
        "GDP": 7.677,
        "Generocity": 0.122,
        "Lat": 0.31666666666666665,
        "LifeExp": 56.101,
        "Long": 32.55,
        "Name": "Uganda",
        "Score": 4.636,
        "Support": 0.781
    },
    {
        "Capital": "Kyiv",
        "Corruption": 0.924,
        "GDP": 9.436,
        "Generocity": -0.011,
        "Lat": 50.43333333333333,
        "LifeExp": 64.902,
        "Long": 30.516667,
        "Name": "Ukraine",
        "Score": 4.875,
        "Support": 0.888
    },
    {
        "Capital": "Abu Dhabi",
        "Corruption": 0.589,
        "GDP": 11.085,
        "Generocity": 0.074,
        "Lat": 24.466666666666665,
        "LifeExp": 67.333,
        "Long": 54.366667,
        "Name": "United Arab Emirates",
        "Score": 6.561,
        "Support": 0.844
    },
    {
        "Capital": "London",
        "Corruption": 0.459,
        "GDP": 10.707,
        "Generocity": 0.233,
        "Lat": 51.5,
        "LifeExp": 72.5,
        "Long": -0.083333,
        "Name": "United Kingdom",
        "Score": 7.064,
        "Support": 0.934
    },
    {
        "Capital": "Washington",
        "Corruption": 0.698,
        "GDP": 11.023,
        "Generocity": 0.098,
        "Lat": 38.883333,
        "LifeExp": 68.2,
        "Long": -77.0,
        "Name": "United States",
        "Score": 6.951,
        "Support": 0.92
    },
    {
        "Capital": "Montevideo",
        "Corruption": 0.59,
        "GDP": 9.966,
        "Generocity": -0.092,
        "Lat": -34.85,
        "LifeExp": 69.1,
        "Long": -56.166667,
        "Name": "Uruguay",
        "Score": 6.431,
        "Support": 0.925
    },
    {
        "Capital": "Tashkent",
        "Corruption": 0.515,
        "GDP": 8.836,
        "Generocity": 0.311,
        "Lat": 41.31666666666667,
        "LifeExp": 65.255,
        "Long": 69.25,
        "Name": "Uzbekistan",
        "Score": 6.179,
        "Support": 0.918
    },
    {
        "Capital": "Caracas",
        "Corruption": 0.827,
        "GDP": 9.073,
        "Generocity": -0.169,
        "Lat": 10.483333333333333,
        "LifeExp": 66.7,
        "Long": -66.866667,
        "Name": "Venezuela",
        "Score": 4.892,
        "Support": 0.861
    },
    {
        "Capital": "Hanoi",
        "Corruption": 0.796,
        "GDP": 8.973,
        "Generocity": -0.098,
        "Lat": 21.033333333333335,
        "LifeExp": 68.034,
        "Long": 105.85,
        "Name": "Vietnam",
        "Score": 5.411,
        "Support": 0.85
    },
    {
        "Capital": "Sanaa",
        "Corruption": 0.8,
        "GDP": 7.578,
        "Generocity": -0.147,
        "Lat": 15.35,
        "LifeExp": 57.122,
        "Long": 44.2,
        "Name": "Yemen",
        "Score": 3.658,
        "Support": 0.832
    },
    {
        "Capital": "Lusaka",
        "Corruption": 0.823,
        "GDP": 8.145,
        "Generocity": 0.061,
        "Lat": -15.416666666666666,
        "LifeExp": 55.809,
        "Long": 28.283333,
        "Name": "Zambia",
        "Score": 4.073,
        "Support": 0.708
    },
    {
        "Capital": "Harare",
        "Corruption": 0.821,
        "GDP": 7.943,
        "Generocity": -0.047,
        "Lat": -17.816666666666666,
        "LifeExp": 56.201,
        "Long": 31.033333,
        "Name": "Zimbabwe",
        "Score": 3.145,
        "Support": 0.75
    }
]